City,Lat,Lng,Max Temp,Humidity,Cloudiness,Wind Speed,Country,Date
talnakh,69.49,88.4,46.4,93,75,6,RU,1595022317
albany,42.6,-73.97,84.0,67,57,0.89,US,1595022317
chicama,-7.84,-79.15,68.7,64,12,3.64,PE,1595022317
new norfolk,-42.78,147.06,37.0,85,100,1.28,AU,1595022317
morant bay,17.88,-76.41,86.0,70,40,10.8,JM,1595022241
kapaa,22.08,-159.32,84.2,79,1,4.1,US,1595022686
illoqqortoormiut,22.08,-159.32,84.2,79,1,4.1,US,1595022686
yellowknife,62.46,-114.35,70.0,49,75,4.6,CA,1595022190
tall kayf,37.08,41.07,82.4,20,0,2.1,TR,1595022687
atuona,-9.8,-139.03,79.21,78,22,7.39,PF,1595022687
taolanaro,-9.8,-139.03,79.21,78,22,7.39,PF,1595022687
cape town,-33.93,18.42,66.0,44,0,5.1,ZA,1595022687
tuatapere,-46.13,167.68,38.57,82,48,0.94,NZ,1595022687
chuy,-33.7,-53.46,57.2,95,98,4.94,UY,1595022687
banda aceh,5.56,95.32,78.55,83,100,4.3,ID,1595022688
ourinhos,-22.98,-49.87,67.95,77,6,2.2,BR,1595022688
udachnyy,66.42,112.4,53.6,81,90,1,RU,1595022688
moose factory,51.26,-80.61,78.8,44,20,7.7,CA,1595022688
bethel,41.37,-73.41,82.0,69,40,2.1,US,1595022638
araouane,18.9,-3.53,100.76,20,37,0.28,ML,1595022688
mar del plata,-38,-57.56,51.01,93,100,5.1,AR,1595022585
rikitea,-23.12,-134.97,73.29,82,100,6.61,PF,1595022689
namibe,-15.2,12.15,68.67,55,0,1.62,AO,1595022689
luan,46.36,6.98,68.0,60,75,2.6,CH,1595022689
constitucion,-35.33,-72.42,55.6,91,93,9.29,CL,1595022689
jamestown,42.1,-79.24,79.0,57,20,5.1,US,1595022689
puerto ayora,-0.74,-90.35,78.8,61,52,1.5,EC,1595022689
adrar,20.5,-10.07,97.43,21,0,3.16,MR,1595022689
shenzhen,22.55,114.07,86.0,83,40,4,CN,1595022455
vila velha,-20.33,-40.29,73.4,64,40,2.1,BR,1595022689
kavieng,-2.57,150.8,83.5,75,98,4.56,PG,1595022689
cherskiy,68.75,161.3,52.02,67,68,4.49,RU,1595022690
cidreira,-30.18,-50.21,60.42,88,85,5.04,BR,1595022690
mataura,-46.19,168.86,33.98,88,0,0.69,NZ,1595022690
gudari,19.35,83.78,78.12,88,100,0.14,IN,1595022690
hilo,19.73,-155.09,82.4,69,90,5.1,US,1595022690
kodiak,57.79,-152.41,60.8,77,90,3.1,US,1595022690
andenes,69.31,16.12,55.4,87,100,8.2,NO,1595022690
hobart,-42.88,147.33,39.2,80,75,3.6,AU,1595022435
ahipara,-35.17,173.17,60.76,89,99,3.64,NZ,1595022691
bluff,-46.6,168.33,36.86,85,13,2.71,NZ,1595022691
thompson,55.74,-97.86,71.6,49,75,2.1,CA,1595022691
dapdap,12.06,125.49,82.04,77,100,2.85,PH,1595022691
saint-pierre,-21.34,55.48,66.2,77,90,3.6,RE,1595022692
pevek,69.7,170.31,44.44,85,30,1.65,RU,1595022692
ushuaia,-54.8,-68.3,28.4,92,61,1.5,AR,1595022497
avarua,-21.21,-159.78,73.4,60,14,2.1,CK,1595022692
vaini,-21.2,-175.2,77.0,88,75,5.1,TO,1595022692
yumen,40.28,97.2,62.13,54,0,3.42,CN,1595022692
clyde river,70.47,-68.59,44.6,81,75,8.7,CA,1595022692
nautla,20.22,-96.78,88.23,60,49,7.07,MX,1595022693
cabo san lucas,22.89,-109.91,88.0,51,5,6.2,MX,1595022644
brae,60.4,-1.35,53.6,93,75,4.6,GB,1595022693
ilulissat,69.22,-51.1,53.6,46,0,2.1,GL,1595022693
ulagan,50.63,87.96,52.14,81,1,0.51,RU,1595022693
noumea,-22.28,166.46,69.01,82,20,1,NC,1595022418
port lincoln,-34.73,135.87,57.88,47,100,8.75,AU,1595022693
souillac,-20.52,57.52,69.8,73,40,6.2,MU,1595022625
bull savanna,17.89,-77.59,82.87,70,18,5.17,JM,1595022693
maniitsoq,65.42,-52.9,53.78,67,0,2.95,GL,1595022694
busselton,-33.65,115.33,46.0,83,97,3.7,AU,1595022694
tabiauea,-33.65,115.33,46.0,83,97,3.7,AU,1595022694
san patricio,19.22,-104.7,89.6,66,40,5.1,MX,1595022694
east london,-33.02,27.91,62.58,29,0,3.03,ZA,1595022694
freeport,40.66,-73.58,84.0,74,40,3.6,US,1595022505
norman wells,65.28,-126.83,73.4,40,20,2.1,CA,1595022694
katsuura,35.13,140.3,69.8,100,90,1,JP,1595022694
poya,-21.35,165.15,69.44,55,1,0.75,NC,1595022694
meulaboh,4.14,96.13,74.88,91,84,2.02,ID,1595022695
bathsheba,13.22,-59.52,84.2,70,40,5.1,BB,1595022695
sarangani,5.4,125.46,83.14,70,19,1.89,PH,1595022695
santa rosa,14.31,121.11,80.6,78,98,2.37,PH,1595022590
punta arenas,-53.15,-70.92,32.0,95,75,4.6,CL,1595022604
ponta do sol,32.67,-17.1,71.6,83,20,1.5,PT,1595022695
tuktoyaktuk,69.45,-133.04,50.0,71,75,4.6,CA,1595022696
georgetown,5.41,100.34,78.8,94,40,2.74,MY,1595022696
hasaki,35.73,140.83,66.2,100,75,2.1,JP,1595022696
turukhansk,65.82,87.98,46.76,90,37,2.96,RU,1595022696
erenhot,43.65,111.98,67.14,59,86,4.66,CN,1595022696
poum,-20.23,164.02,70.14,57,0,4.1,NC,1595022697
provideniya,64.38,-173.3,52.43,86,96,1.56,RU,1595022697
sitka,57.05,-135.33,57.2,82,40,5.7,US,1595022682
zhangjiakou,40.81,114.88,62.51,82,98,1.09,CN,1595022697
teseney,15.11,36.66,82.8,55,94,6.26,ER,1595022697
kyra,49.58,111.98,50.18,73,100,2.45,RU,1595022697
barrow,71.29,-156.79,37.4,74,90,7.2,US,1595022698
bredasdorp,-34.53,20.04,44.6,81,0,1,ZA,1595022698
nikolskoye,59.7,30.79,57.2,76,18,2,RU,1595022698
moron,-34.65,-58.62,57.99,84,90,2.68,AR,1595022458
sogdiondon,-34.65,-58.62,57.99,84,90,2.68,AR,1595022458
bambous virieux,-20.34,57.76,69.8,73,40,6.2,MU,1595022698
longyearbyen,78.22,15.64,46.4,81,20,7.7,SJ,1595022698
rawson,-43.3,-65.1,53.92,62,100,11.02,AR,1595022698
haines junction,60.75,-137.51,64.02,41,87,4.3,CA,1595022698
ostrovnoy,68.05,39.51,49.84,64,2,1.56,RU,1595022699
tumannyy,68.05,39.51,49.84,64,2,1.56,RU,1595022699
barentsburg,68.05,39.51,49.84,64,2,1.56,RU,1595022699
kauhajoki,62.43,22.18,64.99,68,84,2.6,FI,1595022699
kibaya,-5.3,36.57,52.56,66,11,4.33,TZ,1595022699
sistranda,63.73,8.83,55.4,87,75,3.1,NO,1595022699
ewa beach,21.32,-158.01,86.0,70,75,4.6,US,1595022439
hermanus,-34.42,19.23,61.16,45,0,3.45,ZA,1595022699
leh,34.17,77.58,62.4,35,6,2.09,IN,1595022699
carnarvon,-24.87,113.63,50.0,100,0,3.6,AU,1595022630
khatanga,71.97,102.5,39.29,92,100,5.18,RU,1595022700
chiesanuova,43.9,12.42,64.99,82,0,1.5,SM,1595022700
iqaluit,63.75,-68.51,48.2,93,75,3.6,CA,1595022700
urubicha,-15.38,-62.95,79.88,48,70,0.88,BO,1595022700
acari,-15.43,-74.62,65.23,60,48,2.7,PE,1595022700
ayer itam,-15.43,-74.62,65.23,60,48,2.7,PE,1595022700
komsomolskiy,40.43,71.72,78.8,34,99,4.1,UZ,1595022701
zambezi,-13.54,23.1,50.05,60,0,2.83,ZM,1595022701
port alfred,-33.59,26.89,65.05,28,0,4.33,ZA,1595022701
lebu,-37.62,-73.65,52.72,88,0,6.94,CL,1595022701
ushumun,52.78,126.53,69.87,90,66,2.09,RU,1595022701
vila,42.03,-8.16,82.4,45,0,3.6,PT,1595022701
jerez,14.1,-89.75,91.4,43,20,2.6,GT,1595022702
belushya guba,14.1,-89.75,91.4,43,20,2.6,GT,1595022702
trincomalee,8.57,81.23,81.54,76,100,2.78,LK,1595022702
port elizabeth,-33.92,25.57,46.4,61,0,2.1,ZA,1595022702
nouadhibou,20.93,-17.03,69.8,94,0,7.7,MR,1595022702
naze,28.37,129.48,80.6,94,75,5.7,JP,1595022702
champerico,14.3,-91.92,93.2,52,40,3.1,GT,1595022703
sola,-13.88,167.55,78.8,100,75,6.94,VU,1595022703
bismarck,46.81,-100.78,97.0,47,1,7.2,US,1595022703
castro,-24.79,-50.01,59.97,89,0,1.19,BR,1595022703
carballo,43.21,-8.69,70.0,73,0,1.99,ES,1595022703
hithadhoo,-0.6,73.08,83.88,75,98,4.76,MV,1595022703
victor harbor,-35.57,138.62,59.0,49,100,1.34,AU,1595022703
fujin,47.26,132.03,73.09,83,0,3.85,CN,1595022629
qaqortoq,60.72,-46.03,69.8,22,0,3.1,GL,1595022449
qaanaaq,77.48,-69.36,46.08,69,100,4.36,GL,1595022704
upernavik,72.79,-56.15,45.88,63,70,3.14,GL,1595022704
wageningen,51.97,5.67,64.99,93,90,1,NL,1595022704
svinita,44.5,22.11,60.01,90,100,2.73,RO,1595022704
kurri kurri,-32.82,151.48,52.0,94,62,1.22,AU,1595022704
mchinji,-13.8,32.88,49.23,97,57,2.92,MW,1595022705
leeton,-34.57,146.4,32.0,86,1,2.6,AU,1595022705
sentyabrskiy,-34.57,146.4,32.0,86,1,2.6,AU,1595022705
halifax,44.65,-63.57,66.99,74,100,0.45,CA,1595022409
itainopolis,-7.45,-41.48,80.2,36,0,2.96,BR,1595022705
cape girardeau,37.31,-89.52,75.2,88,90,3.1,US,1595022705
saleaula,37.31,-89.52,75.2,88,90,3.1,US,1595022705
solin,43.55,16.5,69.8,46,0,3.6,HR,1595022706
butaritari,3.07,172.79,83.03,77,27,7.34,KI,1595022706
lompoc,34.64,-120.46,71.6,60,13,7.2,US,1595022438
grand river south east,34.64,-120.46,71.6,60,13,7.2,US,1595022438
inirida,3.87,-67.92,80.29,86,94,0.57,CO,1595022706
ola,59.58,151.28,53.02,91,100,4.23,RU,1595022707
jasper,37.2,-94.35,95.0,44,1,6.2,US,1595022707
torbay,47.67,-52.73,51.01,100,90,7.7,CA,1595022707
port hardy,50.7,-127.42,64.4,68,20,7.2,CA,1595022707
matara,5.95,80.54,78.75,87,97,3.56,LK,1595022707
nizwa,22.93,57.53,91.15,39,100,2.37,OM,1595022708
tasiilaq,65.61,-37.64,57.2,35,0,3.1,GL,1595022708
rocha,-34.48,-54.33,57.07,91,99,5.29,UY,1595022708
mount isa,-20.73,139.5,39.2,51,16,4.03,AU,1595022708
syedove,47.08,38.16,68.0,100,6,5.36,UA,1595022708
leningradskiy,69.38,178.42,37.53,86,95,7.13,RU,1595022708
noyabrsk,63.2,75.45,56.59,68,32,7.1,RU,1595022472
cotonou,6.37,2.42,75.2,94,20,3.1,BJ,1595022575
ribeira grande,38.52,-28.7,69.93,79,9,6.25,PT,1595022708
saint george,37.1,-113.58,104.0,12,1,5.7,US,1595022709
klaksvik,62.23,-6.59,50.0,87,64,10.3,FO,1595022709
parana,-31.73,-60.52,55.0,94,100,2.83,AR,1595022532
touros,-5.2,-35.46,77.0,88,40,2.6,BR,1595022566
saint-philippe,-21.36,55.77,66.2,77,90,3.6,RE,1595022709
zhigansk,66.77,123.37,57.06,95,100,2.64,RU,1595022709
paragominas,-2.97,-47.48,78.51,67,14,1.86,BR,1595022709
kargasok,59.06,80.86,51.6,83,0,1.85,RU,1595022709
pestretsy,55.75,49.65,57.2,87,44,2,RU,1595022710
nueva guinea,11.69,-84.46,82.51,76,34,4.84,NI,1595022710
victoria,22.29,114.16,84.0,83,100,4.47,HK,1595022630
isangel,-19.55,169.27,71.6,83,20,1.5,VU,1595022710
san quintin,30.48,-115.95,75.34,60,0,6.68,MX,1595022711
umzimvubu,30.48,-115.95,75.34,60,0,6.68,MX,1595022711
bogovarovo,58.98,47.02,55.31,97,1,1.78,RU,1595022711
yuxia,34.06,108.63,73.0,100,71,1,CN,1595022569
tsihombe,34.06,108.63,73.0,100,71,1,CN,1595022569
sirohi,24.88,72.87,86.52,66,2,1.67,IN,1595022711
tazovskiy,67.47,78.7,45.07,82,45,2.47,RU,1595022711
leshukonskoye,64.9,45.76,52.68,97,2,2.21,RU,1595022712
nome,64.5,-165.41,66.0,77,1,4.1,US,1595022712
mubende,0.56,31.39,63.27,63,99,0.58,UG,1595022712
rondonopolis,-16.47,-54.64,79.95,29,10,2.16,BR,1595022712
lamar,33.67,-95.58,96.01,56,20,5.7,US,1595022712
nizhneyansk,33.67,-95.58,96.01,56,20,5.7,US,1595022712
hambantota,6.12,81.12,78.8,94,100,1.5,LK,1595022712
murgab,37.5,61.97,86.0,27,40,4.1,TM,1595022713
palauig,15.44,119.9,81.32,74,97,1.91,PH,1595022713
uige,-7.61,15.06,64.27,50,43,1.27,AO,1595022713
chapais,49.78,-74.85,78.8,47,40,6.2,CA,1595022713
arraial do cabo,-22.97,-42.03,69.8,77,1,5.7,BR,1595022713
gorontalo,0.54,123.06,74.03,89,15,0.82,ID,1595022713
hofn,64.25,-15.21,53.46,67,95,6.32,IS,1595022713
kaiserslautern,49.45,7.75,66.0,82,75,1.66,DE,1595022714
broome,42.25,-75.83,82.99,51,1,3.6,US,1595022714
cuiluan,47.72,128.65,73.26,81,98,0.82,CN,1595022714
bubaque,11.28,-15.83,78.42,85,100,10.44,GW,1595022714
golyshmanovo,56.4,68.37,67.84,75,63,0.8,RU,1595022714
ponta delgada,37.73,-25.67,69.8,77,75,2.6,PT,1595022714
alofi,-19.06,-169.92,80.6,69,53,5.1,NU,1595022714
suhbaatar,50.23,106.21,55.04,71,25,1.3,MN,1595022714
vostok,46.49,135.88,70.9,75,21,0.29,RU,1595022714
ancud,-41.87,-73.82,48.2,100,90,5.1,CL,1595022715
kropotkin,45.44,40.58,64.47,95,3,2.86,RU,1595022715
faanui,-16.48,-151.75,77.63,80,1,5.53,PF,1595022715
kalmunai,7.42,81.82,81.28,77,99,2.15,LK,1595022715
chunskiy,56.08,99.63,51.06,89,99,2.41,RU,1595022715
belmonte,-15.86,-38.88,73.4,64,0,2.1,BR,1595022715
caravelas,-17.71,-39.25,70.54,65,31,2.56,BR,1595022715
zhuhai,22.28,113.57,84.99,83,40,4.1,CN,1595022652
alice springs,-23.7,133.88,37.4,47,0,2.1,AU,1595022463
portland,45.52,-122.68,75.0,49,75,7.2,US,1595022648
nsanje,-16.92,35.26,59.07,94,46,2.1,MW,1595022715
kuznechnoye,61.12,29.87,61.0,57,0,1.64,RU,1595022716
hundorp,61.56,9.94,53.01,96,98,1.34,NO,1595022716
codrington,-38.27,141.97,48.54,65,100,7.79,AU,1595022716
tulun,54.56,100.58,48.29,91,11,3.51,RU,1595022716
dzhusaly,54.56,100.58,48.29,91,11,3.51,RU,1595022716
zacamulpa,19.36,-99.33,75.2,35,75,3.1,MX,1595022716
mwene-ditu,-7,23.45,64.26,44,18,2.98,CD,1595022716
kirakira,-10.45,161.92,81.64,79,91,4.1,SB,1595022717
vikevag,59.1,5.7,59.0,100,90,4.6,NO,1595022717
krasnoselkup,65.7,82.47,47.55,81,73,3.09,RU,1595022717
hede,33.77,120.25,73.09,97,100,4.78,CN,1595022717
samarai,-10.62,150.67,75.72,86,100,7.36,PG,1595022717
fengkou,30.08,113.27,77.27,94,100,2.01,CN,1595022717
san rafael,-34.62,-68.33,58.28,36,1,3.96,AR,1595022512
albion,42.24,-84.75,86.0,51,1,2.6,US,1595022718
vestmanna,62.16,-7.17,50.0,87,67,10.3,FO,1595022718
prince rupert,54.32,-130.32,57.2,87,90,2.6,CA,1595022718
namatanai,-3.67,152.43,81.79,75,92,3.13,PG,1595022718
copiapo,-27.37,-70.33,55.4,76,75,4.1,CL,1595022718
korla,41.76,86.15,86.0,56,1,0.89,CN,1595022718
angoche,-16.23,39.91,69.78,73,60,6.84,MZ,1595022667
ilhabela,-23.78,-45.36,66.83,83,7,2.44,BR,1595022719
ledyard,41.44,-72.01,73.0,94,90,2.97,US,1595022719
vila franca do campo,37.72,-25.43,69.8,77,75,2.6,PT,1595022719
nuuk,64.18,-51.72,64.4,34,0,5.7,GL,1595022590
salvador,13.83,-88.92,91.4,49,40,3.6,SV,1595022719
nishihara,26.18,127.76,82.4,94,90,4.1,JP,1595022719
birjand,32.87,59.22,77.0,25,0,5.1,IR,1595022719
okhotsk,59.38,143.3,56.62,90,98,2.33,RU,1595022720
taltal,-25.4,-70.48,57.22,79,34,2.79,CL,1595022720
attawapiskat,-25.4,-70.48,57.22,79,34,2.79,CL,1595022720
winnemucca,40.97,-117.74,100.4,8,1,7.7,US,1595022720
morros,-9.45,-46.3,76.82,36,0,2.35,BR,1595022720
ushtobe,45.25,77.98,76.64,33,99,2.3,KZ,1595022720
geraldton,-28.77,114.6,48.2,87,75,3.6,AU,1595022720
baherden,38.44,57.43,87.49,25,0,1.54,TM,1595022720
waingapu,-9.66,120.26,73.13,86,6,3.17,ID,1595022721
zhigalovo,54.81,105.16,52.11,89,95,1.75,RU,1595022721
cairns,-16.92,145.77,59.0,82,100,5.7,AU,1595022721
jalu,29.03,21.55,85.14,36,0,5.06,LY,1595022721
dikson,73.51,80.55,40.62,96,91,4.24,RU,1595022721
pacific grove,36.62,-121.92,73.99,56,1,5.1,US,1595022721
coruripe,-10.13,-36.18,74.01,83,36,5.83,BR,1595022721
mayumba,-3.43,10.66,70.03,91,58,1.01,GA,1595022722
mkushi,-13.62,29.39,43.75,91,54,1.89,ZM,1595022722
kieta,-6.22,155.63,81.97,73,97,2.13,PG,1595022722
bud,39.45,-86.18,87.01,51,1,1.5,US,1595022722
palabuhanratu,39.45,-86.18,87.01,51,1,1.5,US,1595022722
acarau,-2.89,-40.12,78.87,73,11,5.6,BR,1595022722
kruisfontein,-34,24.73,58.26,31,0,4.84,ZA,1595022722
alotau,-34,24.73,58.26,31,0,4.84,ZA,1595022722
oeiras,-7.03,-42.13,80.02,42,0,2.4,BR,1595022723
abashiri,44.02,144.27,66.0,80,0,1.34,JP,1595022723
rabo de peixe,37.8,-25.58,69.8,77,75,2.6,PT,1595022723
san carlos de bariloche,-41.15,-71.31,39.2,93,75,2.1,AR,1595022670
chokurdakh,70.63,147.92,51.44,54,0,3.18,RU,1595022723
payo,-3.75,103.64,70.41,94,42,0.64,ID,1595022723
narsaq,60.92,-46.05,69.8,22,0,3.1,GL,1595022723
airai,-8.93,125.41,56.86,100,29,1.76,TL,1595022723
naantali,60.47,22.02,64.4,63,80,3.6,FI,1595022724
praia,14.92,-23.51,77.0,69,75,5.1,CV,1595022724
lasa,46.62,10.7,53.6,76,40,2.6,IT,1595022724
dunda,-8.12,34.25,53.49,63,6,3.14,TZ,1595022724
lagoa,39.05,-27.98,69.71,82,72,5.36,PT,1595022724
pecos,31.42,-103.49,104.0,16,1,6.2,US,1595022725
cockburn town,21.46,-71.14,86.0,66,40,5.1,TC,1595022725
chulym,55.1,80.96,57.99,78,6,3.11,RU,1595022725
tirumullaivasal,11.23,79.83,79.27,80,100,2.43,IN,1595022725
assiniboia,49.63,-105.98,79.21,41,84,5.89,CA,1595022725
san cristobal,7.77,-72.22,87.8,55,40,2.6,VE,1595022725
kaitangata,-46.28,169.85,44.01,77,0,1.79,NZ,1595022720
winchester,51.07,-1.32,64.0,72,1,2.6,GB,1595022725
haibowan,51.07,-1.32,64.0,72,1,2.6,GB,1595022725
sao gabriel da cachoeira,-0.13,-67.09,84.2,74,40,2.1,BR,1595022725
grindavik,63.84,-22.43,44.6,81,75,13.9,IS,1595022726
ndele,8.41,20.65,70.79,95,100,1.76,CF,1595022726
mansfield,53.13,-1.2,66.0,83,16,1.34,GB,1595022726
villa maria,-32.41,-63.24,57.0,71,2,0.89,AR,1595022679
vao,-22.67,167.48,69.33,72,10,6.59,NC,1595022726
karauzyak,-22.67,167.48,69.33,72,10,6.59,NC,1595022726
rurrenabaque,-14.44,-67.53,81.14,65,49,0.36,BO,1595022726
lagos,6.58,3.75,77.0,88,20,1.5,NG,1595022457
dauphin,51.15,-100.05,84.2,54,1,2.6,CA,1595022726
sabla,12.75,4.71,82.63,65,11,3.72,NG,1595022726
cruz alta,-28.64,-53.61,71.6,83,18,4.1,BR,1595022726
faya,18.39,42.45,71.6,46,100,3.1,SA,1595022726
khonuu,18.39,42.45,71.6,46,100,3.1,SA,1595022726
manjacaze,-24.71,33.88,54.75,87,0,0.44,MZ,1595022727
harper,4.38,-7.72,75.24,79,0,2.84,LR,1595022727
navalmoral de la mata,39.89,-5.54,82.0,15,0,0.89,ES,1595022727
ostersund,63.18,14.64,55.4,82,100,6.2,SE,1595022528
nanortalik,60.14,-45.24,47.84,64,0,5.82,GL,1595022727
cayenne,4.93,-52.33,82.4,69,100,4.1,GF,1595022638
ayna,-12.65,-73.92,66.15,65,56,1.37,PE,1595022727
odienne,9.51,-7.57,70.81,95,25,2.12,CI,1595022727
cabra,37.47,-4.44,91.4,27,0,3.1,ES,1595022728
gwadar,25.12,62.33,87.98,63,100,3.79,PK,1595022728
karaul,25.12,62.33,87.98,63,100,3.79,PK,1595022728
diffa,13.32,12.61,80.11,67,100,3.69,NE,1595022728
hamilton,39.18,-84.53,91.99,55,20,3.1,US,1595022320
praia da vitoria,38.73,-27.07,69.8,88,75,4.76,PT,1595022728
warburton,31.55,73.83,84.2,74,20,3.1,PK,1595022728
bambanglipuro,-7.95,110.28,75.06,86,84,3.4,ID,1595022542
labuhan,-6.88,112.21,75.88,83,10,5.2,ID,1595022728
necochea,-38.55,-58.74,51.01,86,100,1.79,AR,1595022559
babanusah,-38.55,-58.74,51.01,86,100,1.79,AR,1595022559
ust-nera,64.57,143.2,59.65,44,92,2.58,RU,1595022729
plettenberg bay,-34.05,23.37,63.59,30,0,3.02,ZA,1595022729
nizhniy kuranakh,58.84,125.49,65.37,92,77,0.65,RU,1595022729
requena,39.49,-1.1,68.0,79,3,2.36,ES,1595022526
amderma,39.49,-1.1,68.0,79,3,2.36,ES,1595022526
kozmodemyansk,56.34,46.57,57.2,93,7,3,RU,1595022729
esperance,-33.87,121.9,42.8,100,40,5.1,AU,1595022729
wanning,18.8,110.4,80.87,89,77,4.04,CN,1595022730
nova vicosa,-17.89,-39.37,70.45,67,24,3.02,BR,1595022730
bulancak,40.94,38.23,73.4,88,75,1,TR,1595022730
laguna,38.42,-121.42,90.0,23,1,6.7,US,1595022730
burns lake,54.23,-125.75,70.02,36,0,3.46,CA,1595022730
tambacounda,13.75,-13.76,80.6,83,40,2.1,SN,1595022731
thaton,16.92,97.37,78.24,89,100,0.81,MM,1595022731
okakarara,-20.58,17.43,43.27,57,0,3.59,NA,1595022731
sao filipe,14.9,-24.5,75.45,78,38,3.63,CV,1595022731
mizdah,31.45,12.98,74.52,62,0,5.73,LY,1595022731
chalon-sur-saone,46.78,4.85,64.4,77,4,2.1,FR,1595022731
flinders,-34.58,150.86,51.01,80,36,0.45,AU,1595022731
gizo,-8.1,156.84,83.05,77,84,6,SB,1595022576
kobojango,-8.1,156.84,83.05,77,84,6,SB,1595022576
fortuna,40.6,-124.16,64.99,87,40,7.7,US,1595022732
belluno,46.15,12.22,66.99,88,49,1.95,IT,1595022732
cam pha,46.15,12.22,66.99,88,49,1.95,IT,1595022732
akhmim,26.56,31.75,86.0,23,0,3.1,EG,1595022732
camopi,3.17,-52.32,74.86,94,98,1.06,GF,1595022732
esso,55.93,158.7,62.15,60,94,1.8,RU,1595022458
mandera,3.94,41.87,79.14,56,100,9.15,KE,1595022732
vardo,70.37,31.11,55.4,82,100,7.7,NO,1595022732
sao joao da barra,-21.64,-41.05,71.6,78,0,4.1,BR,1595022732
port hedland,-20.32,118.57,57.2,93,90,2.6,AU,1595022733
akureyri,65.68,-18.09,44.6,87,90,11.3,IS,1595022733
puerto escondido,15.85,-97.07,87.8,62,40,4.1,MX,1595022733
atar,20.52,-13.05,97.29,23,72,3.19,MR,1595022733
suntar,62.14,117.63,56.19,91,100,1.94,RU,1595022733
fort smith,35.39,-94.4,98.01,41,1,3.1,US,1595022733
marcona,35.39,-94.4,98.01,41,1,3.1,US,1595022733
salalah,17.02,54.09,82.4,88,40,2.1,OM,1595022733
juybar,36.64,52.91,75.2,78,0,2.1,IR,1595022734
saqqez,36.25,46.27,69.37,34,0,1.58,IR,1595022734
heishan,41.69,122.11,69.04,75,94,4.31,CN,1595022734
mangrol,21.12,70.12,82.56,86,24,4.17,IN,1595022734
ambulu,-8.35,113.61,72.84,89,52,2.23,ID,1595022734
ponca city,36.71,-97.09,96.8,56,1,7.2,US,1595022734
tlazazalca,19.97,-102.07,77.0,57,90,6.2,MX,1595022734
kupang,-10.17,123.58,77.0,83,20,4.1,ID,1595022594
elizabeth city,36.29,-76.25,95.0,59,1,3.6,US,1595022735
shimoda,34.67,138.95,63.0,96,100,0.89,JP,1595022735
tadine,-21.55,167.88,71.1,52,0,0.75,NC,1595022735
mys shmidta,-21.55,167.88,71.1,52,0,0.75,NC,1595022735
lorengau,-2.02,147.27,84.33,71,88,3.02,PG,1595022735
nachalovo,46.34,48.2,86.0,22,100,4,RU,1595022735
omsukchan,62.53,155.8,52.14,75,60,3.43,RU,1595022735
nara,34.69,135.8,73.99,100,75,1,JP,1595022735
taraz,42.9,71.37,75.2,36,99,4,KZ,1595022669
mullaitivu,42.9,71.37,75.2,36,99,4,KZ,1595022669
carikar,42.9,71.37,75.2,36,99,4,KZ,1595022669
jiayuguan,39.82,98.3,58.3,60,0,0.76,CN,1595022736
pimenta bueno,-11.67,-61.19,81.32,38,0,1.33,BR,1595022736
kamiiso,41.82,140.65,64.4,82,75,4.6,JP,1595022736
axim,4.87,-2.24,74.25,91,29,2.94,GH,1595022736
bara,10.37,10.73,74.52,87,100,4.83,NG,1595022736
kavaratti,10.57,72.64,83.03,80,99,8.66,IN,1595022736
nizhniy tagil,57.92,59.97,63.14,94,81,1.13,RU,1595022736
egvekinot,66.32,-179.17,50.41,96,100,1.43,RU,1595022737
vila do maio,15.13,-23.22,77.0,69,75,5.1,CV,1595022737
san juan,-31.54,-68.54,60.33,32,0,3.04,AR,1595022543
luis correia,-2.88,-41.67,79.95,75,49,3.98,BR,1595022737
stroesti,47.62,26.13,64.0,88,50,2.6,RO,1595022737
thinadhoo,0.53,72.93,83.77,73,96,3.6,MV,1595022737
bengkulu,-3.8,102.27,75.36,86,66,1.89,ID,1595022683
atlantic beach,30.33,-81.4,89.6,59,40,6.2,US,1595022457
karratha,-20.74,116.85,71.46,72,98,2.47,AU,1595022737
evensk,61.95,159.23,55.74,83,75,1.53,RU,1595022738
srednekolymsk,67.45,153.68,55.76,60,50,4.47,RU,1595022738
shasta lake,40.68,-122.37,100.99,25,0,1.34,US,1595022738
aflu,40.68,-122.37,100.99,25,0,1.34,US,1595022738
batticaloa,7.71,81.69,81.93,76,100,1.57,LK,1595022738
ugoofaaru,5.67,73,84.31,73,98,5.58,MV,1595022738
westport,41.14,-73.36,82.0,78,75,3.6,US,1595022657
longlac,41.14,-73.36,82.0,78,75,3.6,US,1595022657
regina,50.45,-104.62,78.8,54,75,7.2,CA,1595022562
tekirdag,40.98,27.51,64.4,93,0,5.1,TR,1595022458
narino,5.61,-75.18,73.4,49,20,6.2,CO,1595022738
buala,-8.14,159.59,83.79,73,85,3.92,SB,1595022739
rio pomba,-21.27,-43.18,64.31,84,0,1.34,BR,1595022527
sumbawa,-21.27,-43.18,64.31,84,0,1.34,BR,1595022527
rio gallegos,-51.62,-69.22,33.8,96,90,5.1,AR,1595022739
diego de almagro,-26.37,-70.05,55.87,46,0,1.65,CL,1595022739
zatoka,46.07,30.47,69.8,49,2,2,UA,1595022739
berlevag,70.86,29.09,62.6,82,75,8.2,NO,1595022739
college,64.86,-147.8,66.2,63,75,3.6,US,1595022739
eureka,40.8,-124.16,69.01,77,20,4.6,US,1595022700
valleyview,55.07,-117.29,63.27,73,34,6.12,CA,1595022739
buluang,13.31,123.34,77.38,86,100,1.03,PH,1595022739
mahebourg,-20.41,57.7,69.8,73,40,6.2,MU,1595022740
tilichiki,60.47,166.1,50.32,100,100,1.89,RU,1595022740
meadow lake,34.8,-106.54,97.0,19,75,2.6,US,1595022740
tiksi,71.69,128.87,44.29,72,91,5.15,RU,1595022740
yulara,-25.24,130.99,37.4,44,0,3.1,AU,1595022740
utiroa,-25.24,130.99,37.4,44,0,3.1,AU,1595022740
arlit,18.74,7.39,85.57,51,59,8.84,NE,1595022740
dzhalil,55.02,52.74,58.87,84,16,2.28,RU,1595022740
asau,46.43,26.4,60.01,95,49,1.21,RO,1595022740
west wendover,40.74,-114.07,96.8,8,1,3.1,US,1595022741
natal,-5.79,-35.21,77.0,88,40,2.6,BR,1595022590
campoverde,-8.48,-74.81,87.8,58,75,1,PE,1595022741
viesca,25.35,-102.8,95.0,24,40,6.2,MX,1595022741
margate,51.38,1.39,66.99,73,0,0.89,GB,1595022741
dingle,11,122.67,76.62,85,99,2.55,PH,1595022619
olafsvik,64.89,-23.71,46.02,81,78,14.01,IS,1595022741
ichnya,50.86,32.39,59.92,82,13,1.25,UA,1595022741
samalaeulu,50.86,32.39,59.92,82,13,1.25,UA,1595022741
vondrozo,-22.82,47.28,52.32,92,49,1.31,MG,1595022742
maulvi bazar,-22.82,47.28,52.32,92,49,1.31,MG,1595022742
svetlogorsk,52.63,29.73,58.05,90,3,2.12,BY,1595022742
voh,-20.97,164.7,70.88,51,0,0.51,NC,1595022742
pangnirtung,66.15,-65.71,50.0,81,90,4.1,CA,1595022742
ribeira brava,32.65,-17.07,71.6,83,20,1.5,PT,1595022742
wanlaweyn,2.62,44.89,74.84,76,100,7.81,SO,1595022742
toropets,56.5,31.64,52.25,76,0,1.42,RU,1595022742
saskylakh,71.92,114.08,50.27,82,99,3.51,RU,1595022742
mecca,21.43,39.83,87.69,20,0,2.45,SA,1595022742
quatre cocos,-20.21,57.76,69.8,73,40,6.2,MU,1595022743
omboue,-1.57,9.26,72.43,90,89,2.64,GA,1595022743
singaraja,-8.11,115.09,76.87,73,6,3.05,ID,1595022743
nobeoka,32.58,131.67,73.94,79,100,0.98,JP,1595022743
minab,27.15,57.08,89.6,75,76,1,IR,1595022743
saldanha,-33.01,17.94,51.8,66,0,2.6,ZA,1595022743
waddan,29.16,16.14,82.02,41,0,6.41,LY,1595022743
dongsheng,39.82,109.98,63.34,73,64,2.21,CN,1595022743
apple valley,34.5,-117.19,93.99,19,0,6.71,US,1595022500
farafangana,-22.82,47.83,62.89,84,77,3.5,MG,1595022744
jiddah,-22.82,47.83,62.89,84,77,3.5,MG,1595022744
seoul,37.57,126.98,73.4,88,40,0.74,KR,1595022661
richards bay,-28.78,32.04,56.39,76,0,3.69,ZA,1595022545
makakilo city,21.35,-158.09,86.0,70,75,4.6,US,1595022744
floro,61.6,5.03,57.2,76,75,4.6,NO,1595022744
sur,22.57,59.53,84.02,73,92,0.65,OM,1595022745
biskamzha,53.45,89.53,58.42,87,99,1.47,RU,1595022745
najran,17.49,44.13,91.4,19,20,4.6,SA,1595022745
antalaha,-14.9,50.28,68.18,79,47,6.13,MG,1595022745
tabuk,17.42,121.44,74.08,87,100,1.15,PH,1595022745
rudnyy,52.96,63.12,73.4,60,19,3,KZ,1595022745
dandong,40.13,124.39,67.75,81,76,1.06,CN,1595022745
mandali,33.75,45.55,91.24,13,0,3.47,IQ,1595022745
pochutla,15.74,-96.47,89.6,55,20,3.38,MX,1595022745
barabai,-2.58,115.38,72.5,94,8,0.67,ID,1595022745
bonthe,7.53,-12.51,76.46,81,54,3.52,SL,1595022745
kaeo,-35.1,173.78,57.99,3,100,2.79,NZ,1595022746
saint anthony,45.02,-93.22,91.4,43,20,6.2,US,1595022746
odessa,46.48,30.73,69.8,49,19,2,UA,1595022656
kamenskoye,46.48,30.73,69.8,49,19,2,UA,1595022656
kipini,-2.53,40.53,77.68,65,63,12.5,KE,1595022746
bani walid,31.76,13.99,73.83,73,0,3.19,LY,1595022746
tottori,35.5,134.23,71.6,94,75,1.5,JP,1595022556
billings,45.78,-108.5,95.0,14,75,4.1,US,1595022634
hirara,24.8,125.28,82.4,88,75,4.6,JP,1595022746
whitehorse,60.72,-135.05,66.0,48,75,5.7,CA,1595022746
samoded,63.61,40.51,49.08,98,4,2.64,RU,1595022746
bandarbeyla,9.49,50.81,81.66,51,73,12.74,SO,1595022747
vanimo,-2.67,141.3,78.96,80,40,1.48,PG,1595022747
tam ky,15.57,108.48,78.8,83,20,2.1,VN,1595022747
simao,22.79,100.97,65.97,96,100,0.86,CN,1595022747
launceston,-41.45,147.17,44.01,100,75,3.1,AU,1595022747
rungata,-41.45,147.17,44.01,100,75,3.1,AU,1595022747
mehamn,71.04,27.85,59.0,82,75,8.2,NO,1595022747
sillod,20.3,75.65,74.59,89,25,3.63,IN,1595022747
riyadh,24.69,46.72,91.4,18,0,1,SA,1595022468
daud khel,32.88,71.57,97.05,36,0,1.33,PK,1595022747
pekalongan,-6.89,109.68,61.0,92,13,2.11,ID,1595022748
belvedere marittimo,39.62,15.86,72.25,72,3,1.43,IT,1595022748
milkovo,54.72,158.62,63.86,73,94,1.35,RU,1595022748
pilar,-9.6,-35.96,71.6,94,90,2.97,BR,1595022748
maragogi,-9.01,-35.22,74.97,85,44,6.4,BR,1595022748
weihai,37.5,122.11,70.23,87,91,4.51,CN,1595022748
kerouane,9.27,-9.02,69.71,93,91,1.47,GN,1595022748
kachikau,9.27,-9.02,69.71,93,91,1.47,GN,1595022748
padang,-0.95,100.35,77.25,77,82,1.92,ID,1595022677
sao paulo de olivenca,-3.38,-68.87,80.78,82,84,0.76,BR,1595022749
xining,36.62,101.77,53.53,86,100,0.65,CN,1595022663
cabedelo,-6.98,-34.83,73.4,100,75,5.1,BR,1595022605
paris,48.85,2.35,73.99,64,55,1.5,FR,1595022603
hays,30.05,-98.03,100.0,45,40,2.68,US,1595022749
half moon bay,37.46,-122.43,81.0,56,5,7.7,US,1595022695
fairbanks,64.84,-147.72,66.2,63,75,3.6,US,1595022627
kahului,20.89,-156.47,91.4,52,40,10.3,US,1595022595
talara,-4.58,-81.27,75.2,69,3,7.2,PE,1595022451
kysyl-syr,63.9,122.76,58.3,96,100,3.3,RU,1595022749
havre-saint-pierre,50.23,-63.6,68.0,52,75,2.6,CA,1595022750
roald,62.58,6.13,57.2,76,7,3.1,NO,1595022750
nadym,65.53,72.52,55.87,79,100,6.45,RU,1595022750
bacuit,65.53,72.52,55.87,79,100,6.45,RU,1595022750
quang ngai,15.12,108.8,76.26,83,76,1.4,VN,1595022480
makokou,0.57,12.86,70.07,93,96,1.7,GA,1595022750
santa cruz,-17.8,-63.17,84.2,54,20,6.2,BO,1595022713
fukue,32.69,128.84,74.1,82,100,1.73,JP,1595022750
iskateley,67.68,53.15,53.74,85,99,3.52,RU,1595022750
batagay,67.63,134.63,53.56,82,100,2.04,RU,1595022751
lodja,-3.48,23.43,72.68,53,28,0.44,CD,1595022751
satitoa,-3.48,23.43,72.68,53,28,0.44,CD,1595022751
paracuru,-3.41,-39.03,80.01,72,48,6.26,BR,1595022751
labutta,-3.41,-39.03,80.01,72,48,6.26,BR,1595022751
shenkursk,62.11,42.9,55.98,97,82,3.45,RU,1595022751
beniganj,27.28,80.45,87.78,63,24,3.41,IN,1595022751
altay,47.87,88.12,68.7,36,0,2.84,CN,1595022751
jiangyou,31.77,104.72,74.46,89,83,0.74,CN,1595022751
mussomeli,37.58,13.75,73.99,68,32,2.25,IT,1595022751
brandon,27.94,-82.29,86.0,78,40,4.6,US,1595022662
kantunil,20.8,-89.03,82.4,69,75,4.1,MX,1595022752
payakumbuh,-0.22,100.63,69.15,90,74,0.42,ID,1595022752
wanaka,-44.7,169.15,30.0,88,0,2.24,NZ,1595022752
abu kamal,34.45,40.92,85.24,14,0,5.63,SY,1595022752
inderborskiy,34.45,40.92,85.24,14,0,5.63,SY,1595022752
solana beach,32.99,-117.27,82.0,64,40,3.1,US,1595022752
gueret,46.17,1.87,64.4,68,5,2.1,FR,1595022752
urdzhar,46.17,1.87,64.4,68,5,2.1,FR,1595022752
port blair,11.67,92.75,79.99,80,86,1.91,IN,1595022752
amapa,1,-52,73.38,95,88,0.51,BR,1595022752
paamiut,61.99,-49.67,47.7,71,31,3.25,GL,1595022700
san pedro,14.35,121.02,80.6,78,97,2.16,PH,1595022752
kuna,43.49,-116.42,93.99,20,1,4.1,US,1595022753
santiago,-33.46,-70.65,55.4,66,90,1.06,CL,1595022357
olinda,-8.01,-34.86,73.4,94,90,7.7,BR,1595022753
kinkala,-4.36,14.76,71.6,88,50,2.6,CG,1595022753
enterprise,36.03,-115.24,104.0,11,20,2.6,US,1595022753
chernyshevskiy,63.01,112.47,52.9,84,68,2.85,RU,1595022753
fayaoue,-20.65,166.53,69.89,51,0,2.33,NC,1595022753
papillion,41.15,-96.04,93.2,59,75,6.2,US,1595022753
husavik,66.04,-17.34,44.6,87,90,11.3,IS,1595022753
karkaralinsk,66.04,-17.34,44.6,87,90,11.3,IS,1595022753
mabaruma,8.2,-59.78,78.96,86,100,1.99,GY,1595022754
smithers,54.78,-127.17,64.4,55,75,3.44,CA,1595022754
nenjiang,49.18,125.22,71.8,85,83,2.6,CN,1595022754
seda,57.65,25.75,60.01,88,19,0.62,LV,1595022754
manzanillo,20.34,-77.12,86.88,68,76,0.82,CU,1595022754
dingli,35.86,14.38,75.99,83,14,4.1,MT,1595022754
sao miguel do araguaia,-13.28,-50.16,76.46,34,0,0.92,BR,1595022754
calama,-22.47,-68.93,69.8,6,20,6.2,CL,1595022755
sioux lookout,50.1,-91.92,82.4,39,75,3.1,CA,1595022755
montepuez,-13.13,39,60.17,75,0,5.28,MZ,1595022755
zaysan,47.47,84.87,72.86,34,0,2.49,KZ,1595022755
isla vista,34.41,-119.86,77.0,56,1,5.7,US,1595022755
pisco,-13.7,-76.22,64.4,72,7,7.2,PE,1595022741
sept-iles,50.2,-66.38,64.0,82,75,4.6,CA,1595022755
beringovskiy,63.05,179.32,54.09,76,78,2.73,RU,1595022755
marsa matruh,31.35,27.25,77.0,78,40,2.6,EG,1595022755
drammen,59.74,10.2,62.01,36,100,1.79,NO,1595022517
shingu,33.73,135.98,75.07,92,31,0.85,JP,1595022477
peplos,40.96,26.27,64.81,66,0,3.39,GR,1595022756
piedras negras,28.7,-100.52,98.6,50,20,5.1,MX,1595022756
sulangan,11.14,123.72,83.34,75,62,4.99,PH,1595022756
dunedin,-45.87,170.5,44.01,77,4,0.89,NZ,1595022756
santa fe,-31.63,-60.7,54.0,94,100,0.45,AR,1595022756
batemans bay,-35.72,150.18,44.01,92,12,2.24,AU,1595022756
bhanpura,24.51,75.75,84.09,72,77,3.31,IN,1595022757
tianpeng,30.99,103.94,77.0,78,20,2.1,CN,1595022757
luganville,-15.53,167.17,75.2,94,75,0.5,VU,1595022757
williams lake,52.14,-122.14,60.8,51,75,4.6,CA,1595022757
koumac,-20.57,164.28,69.21,55,0,2.17,NC,1595022757
las palmas,28.42,-14.01,73.4,88,20,4.1,ES,1595022757
lamu,-2.27,40.9,76.77,67,93,10.97,KE,1595022757
kitimat,54.05,-128.65,66.2,59,75,2.1,CA,1595022639
hobyo,5.35,48.53,77.38,71,34,12.56,SO,1595022757
sobolevo,54.43,31.9,54.82,90,74,1.73,RU,1595022758
nea alikarnassos,35.33,25.17,75.99,78,0,4.1,GR,1595022758
lobau,51.1,14.67,55.99,91,1,1.11,DE,1595022758
elat,29.56,34.95,89.6,35,0,7.2,IL,1595022676
san miguel el alto,21.02,-102.35,76.6,49,45,2.14,MX,1595022758
biltine,14.53,20.92,82.69,59,90,6.11,TD,1595022758
massaguet,12.48,15.44,78.8,83,52,2.6,TD,1595022758
kotido,2.98,34.13,67.06,85,100,2.13,UG,1595022758
paungde,18.48,95.5,77.38,93,100,4.64,MM,1595022758
bargal,18.48,95.5,77.38,93,100,4.64,MM,1595022758
felsoszentivan,46.2,19.19,55.6,97,100,0.89,HU,1595022758
bontang,0.13,117.5,76.68,89,29,2.87,ID,1595022759
nacala,-14.54,40.67,67.6,77,10,5.55,MZ,1595022759
hovd,48.01,91.64,61.54,48,0,0.61,MN,1595022759
bell ville,-32.63,-62.69,57.0,71,68,0.89,AR,1595022759
astaneh-ye ashrafiyeh,37.26,49.94,77.95,62,0,0.69,IR,1595022759
naron,43.52,-8.15,69.01,65,0,1.34,ES,1595022759
malakal,9.53,31.66,71.64,89,76,0.9,SS,1595022759
pringsewu,-5.36,104.97,72.93,94,26,1.29,ID,1595022759
ugento,39.93,18.16,73.99,94,40,6.2,IT,1595022759
jamame,0.07,42.75,76.01,76,100,7.99,SO,1595022759
knysna,-34.04,23.05,64.4,22,0,1.5,ZA,1595022760
longyan,25.11,117.02,74.95,86,94,1.44,CN,1595022760
dori,14.04,-0.03,91.24,43,20,3.72,BF,1595022760
bayanday,53.07,105.51,52.02,93,83,3.26,RU,1595022760
ghanzi,-21.57,21.78,45.37,58,0,2.73,BW,1595022760
tyazhinskiy,56.12,88.52,47.16,85,16,2.56,RU,1595022760
marquard,-28.66,27.43,38.28,70,0,1,ZA,1595022760
tasbuget,-28.66,27.43,38.28,70,0,1,ZA,1595022760
zemio,5.03,25.14,69.26,95,100,0.97,CF,1595022761
mookane,-23.69,26.66,48.72,43,0,2.32,BW,1595022761
havoysund,71,24.66,62.6,77,75,6.2,NO,1595022761
puerto del rosario,28.5,-13.86,73.4,88,20,4.1,ES,1595022761
tabou,4.42,-7.35,75.2,81,0,3.04,CI,1595022761
hami,42.8,93.45,76.05,19,0,2.9,CN,1595022762
hualmay,-11.1,-77.61,63.05,73,8,4.25,PE,1595022762
peniche,39.36,-9.38,68.0,91,0,3.4,PT,1595022514
bonavista,48.65,-53.11,53.01,74,62,5.83,CA,1595022762
vilhena,-12.74,-60.15,87.8,33,0,3.6,BR,1595022516
tual,-5.67,132.75,78.89,84,62,9.04,ID,1595022762
tubruq,-5.67,132.75,78.89,84,62,9.04,ID,1595022762
bocaranga,-5.67,132.75,78.89,84,62,9.04,ID,1595022762
dabakala,8.37,-4.43,72.48,92,97,1.77,CI,1595022762
nanma,36.18,118.16,66.69,85,63,2.77,CN,1595022763
dipkarpaz,36.18,118.16,66.69,85,63,2.77,CN,1595022763
chengkung,36.18,118.16,66.69,85,63,2.77,CN,1595022763
opuwo,-18.06,13.84,55.33,39,0,6.07,NA,1595022763
henzada,-18.06,13.84,55.33,39,0,6.07,NA,1595022763
rio grande,-32.03,-52.1,59.0,96,76,1.34,BR,1595022512
robertson,36.52,-86.87,91.0,76,100,3.32,US,1595022763
port-gentil,-0.72,8.78,77.0,88,75,5.7,GA,1595022763
muli,2.92,73.57,84.09,70,93,3.34,MV,1595022763
kiama,-34.68,150.87,51.01,87,50,2.28,AU,1595022763
salinas,36.68,-121.66,73.99,60,75,7.7,US,1595022621
vanavara,60.34,102.28,48.83,89,98,4.08,RU,1595022763
mayo,38.89,-76.51,91.4,74,1,5.7,US,1595022764
sorland,67.67,12.69,53.6,93,40,2.1,NO,1595022764
bur gabo,67.67,12.69,53.6,93,40,2.1,NO,1595022764
samusu,67.67,12.69,53.6,93,40,2.1,NO,1595022764
daru,-9.08,143.21,75.97,85,90,6.3,PG,1595022764
bjelovar,45.9,16.85,57.2,87,74,2.1,HR,1595022764
gagino,55.23,45.03,55.81,92,70,1.41,RU,1595022764
takapau,-40.03,176.35,50.0,95,100,1.79,NZ,1595022764
talawdi,-40.03,176.35,50.0,95,100,1.79,NZ,1595022764
boa vista,2.82,-60.67,82.4,74,75,1.5,BR,1595022574
severo-kurilsk,50.68,156.12,51.39,86,100,4.03,RU,1595022765
roma,43.21,-75.46,82.4,54,20,5.1,US,1595022605
tigil,57.8,158.67,57.85,76,100,6.67,RU,1595022765
